[
    {
        "circleID": "133246694007077",
        "name": "Jeddah",
        "latitude": 21.5433,
        "longitude": 39.1728,
        "memberCount": 304,
        "canJoin": false
    },
    {
        "circleID": "306893753116944",
        "name": "Amman",
        "latitude": 31.95,
        "longitude": 35.9333,
        "memberCount": 1578,
        "canJoin": false
    },
    {
        "circleID": "1924059607867129",
        "name": "Gaza",
        "latitude": 31.5167,
        "longitude": 34.45,
        "memberCount": 2068,
        "canJoin": true
    },
    {
        "circleID": "468921290105607",
        "name": "Cairo",
        "latitude": 30.0581,
        "longitude": 31.2289,
        "memberCount": 2379,
        "canJoin": false
    },
    {
        "circleID": "198798350690556",
        "name": "Baghdad",
        "latitude": 33.3386,
        "longitude": 44.3939,
        "memberCount": 2356,
        "canJoin": false
    },
    {
        "circleID": "594468864056741",
        "name": "Beirut",
        "latitude": 33.8869,
        "longitude": 35.5131,
        "memberCount": 1024,
        "canJoin": false
    },
    {
        "circleID": "1073072029498485",
        "name": "Eldoret",
        "latitude": 0.516667,
        "longitude": 35.2833,
        "memberCount": 364,
        "canJoin": true
    },
    {
        "circleID": "1648618715165794",
        "name": "Kampala",
        "latitude": 0.3136,
        "longitude": 32.5811,
        "memberCount": 1046,
        "canJoin": true
    },
    {
        "circleID": "1274503732598963",
        "name": "Nairobi",
        "latitude": -1.28333,
        "longitude": 36.8167,
        "memberCount": 2045,
        "canJoin": true
    },
    {
        "circleID": "700718990126276",
        "name": "Karachi",
        "latitude": 24.86,
        "longitude": 67.01,
        "memberCount": 1323,
        "canJoin": true
    },
    {
        "circleID": "522329124824156",
        "name": "Kigali",
        "latitude": -1.9439,
        "longitude": 30.0594,
        "memberCount": 512,
        "canJoin": true
    },
    {
        "circleID": "1878625055739503",
        "name": "Tunis",
        "latitude": 36.8,
        "longitude": 10.1833,
        "memberCount": 2859,
        "canJoin": false
    },
    {
        "circleID": "1645790535462079",
        "name": "Maiduguri",
        "latitude": 10.8,
        "longitude": 11.3333,
        "memberCount": 2488,
        "canJoin": false
    },
    {
        "circleID": "733923883470254",
        "name": "Rome",
        "latitude": 41.9,
        "longitude": 12.5,
        "memberCount": 512,
        "canJoin": true
    },
    {
        "circleID": "458616967828317",
        "name": "Bauchi",
        "latitude": 10.3158,
        "longitude": 9.84417,
        "memberCount": 810,
        "canJoin": true
    },
    {
        "circleID": "1630901736929670",
        "name": "Ahmedabad",
        "latitude": 23.0333,
        "longitude": 72.6167,
        "memberCount": 1052,
        "canJoin": true
    },
    {
        "circleID": "449358492076244",
        "name": "Kano",
        "latitude": 12,
        "longitude": 8.5167,
        "memberCount": 1959,
        "canJoin": false
    },
    {
        "circleID": "1499565583424070",
        "name": "Sahiwal",
        "latitude": 30.6667,
        "longitude": 73.1,
        "memberCount": 366,
        "canJoin": true
    },
    {
        "circleID": "238104160054830",
        "name": "Faisalabad",
        "latitude": 31.4167,
        "longitude": 73.0833,
        "memberCount": 589,
        "canJoin": true
    },
    {
        "circleID": "191526138106774",
        "name": "Krak\u00f3w",
        "latitude": 50.0614,
        "longitude": 19.9372,
        "memberCount": 321,
        "canJoin": true
    },
    {
        "circleID": "840712182744942",
        "name": "Vienna",
        "latitude": 48.2083,
        "longitude": 16.3731,
        "memberCount": 703,
        "canJoin": true
    },
    {
        "circleID": "287409958348967",
        "name": "Mumbai",
        "latitude": 18.975,
        "longitude": 72.8258,
        "memberCount": 7471,
        "canJoin": true
    },
    {
        "circleID": "393349887729663",
        "name": "Islamabad",
        "latitude": 33.7,
        "longitude": 73.1667,
        "memberCount": 1526,
        "canJoin": true
    },
    {
        "circleID": "1843953402537347",
        "name": "Kaduna",
        "latitude": 10.5231,
        "longitude": 7.44028,
        "memberCount": 1237,
        "canJoin": true
    },
    {
        "circleID": "2007756699486408",
        "name": "Gujrat",
        "latitude": 32.5738,
        "longitude": 74.0789,
        "memberCount": 597,
        "canJoin": true
    },
    {
        "circleID": "671894639663568",
        "name": "Lahore",
        "latitude": 31.5497,
        "longitude": 74.3436,
        "memberCount": 2983,
        "canJoin": true
    },
    {
        "circleID": "794047007410244",
        "name": "Pune",
        "latitude": 18.5203,
        "longitude": 73.8567,
        "memberCount": 4051,
        "canJoin": true
    },
    {
        "circleID": "1930434703892486",
        "name": "Goa",
        "latitude": 15.4,
        "longitude": 73.8,
        "memberCount": 277,
        "canJoin": true
    },
    {
        "circleID": "2078410409066422",
        "name": "Indore",
        "latitude": 22.7253,
        "longitude": 75.8655,
        "memberCount": 286,
        "canJoin": true
    },
    {
        "circleID": "199942633899594",
        "name": "Munich",
        "latitude": 48.15,
        "longitude": 11.5833,
        "memberCount": 217,
        "canJoin": true
    },
    {
        "circleID": "1712520558828463",
        "name": "Vilnius",
        "latitude": 54.6833,
        "longitude": 25.2833,
        "memberCount": 173,
        "canJoin": true
    },
    {
        "circleID": "119608162060973",
        "name": "Buea",
        "latitude": 4.15944,
        "longitude": 9.23667,
        "memberCount": 531,
        "canJoin": true
    },
    {
        "circleID": "782811971888680",
        "name": "Nsukka",
        "latitude": 6.8567,
        "longitude": 7.3958,
        "memberCount": 385,
        "canJoin": true
    },
    {
        "circleID": "1830096010634862",
        "name": "Algiers",
        "latitude": 36.7532,
        "longitude": 3.04196,
        "memberCount": 1230,
        "canJoin": false
    },
    {
        "circleID": "213171829413185",
        "name": "Chandigarh",
        "latitude": 30.7229,
        "longitude": 76.7807,
        "memberCount": 376,
        "canJoin": true
    },
    {
        "circleID": "130776040813387",
        "name": "Uyo",
        "latitude": 5.05,
        "longitude": 7.93333,
        "memberCount": 850,
        "canJoin": true
    },
    {
        "circleID": "172100019977294",
        "name": "Delhi, NCR",
        "latitude": 28.61,
        "longitude": 77.23,
        "memberCount": 7865,
        "canJoin": false
    },
    {
        "circleID": "561813664164253",
        "name": "Kinshasa",
        "latitude": -4.325,
        "longitude": 15.3222,
        "memberCount": 164,
        "canJoin": true
    },
    {
        "circleID": "1785617378346764",
        "name": "French Alps",
        "latitude": 45.5667,
        "longitude": 5.93333,
        "memberCount": 182,
        "canJoin": true
    },
    {
        "circleID": "1491769797520704",
        "name": "Ado-Ekiti",
        "latitude": 7.63333,
        "longitude": 5.21667,
        "memberCount": 806,
        "canJoin": true
    },
    {
        "circleID": "1973150102961227",
        "name": "Geneva",
        "latitude": 46.2,
        "longitude": 6.15,
        "memberCount": 268,
        "canJoin": true
    },
    {
        "circleID": "279150275914671",
        "name": "Berlin",
        "latitude": 52.5006,
        "longitude": 13.3989,
        "memberCount": 1237,
        "canJoin": false
    },
    {
        "circleID": "127711317975024",
        "name": "Barcelona",
        "latitude": 41.3833,
        "longitude": 2.18333,
        "memberCount": 565,
        "canJoin": true
    },
    {
        "circleID": "238610490215486",
        "name": "Riga",
        "latitude": 56.9564,
        "longitude": 24.1213,
        "memberCount": 73,
        "canJoin": true
    },
    {
        "circleID": "1863078163981978",
        "name": "Hyderabad",
        "latitude": 17.3753,
        "longitude": 78.4744,
        "memberCount": 3358,
        "canJoin": true
    },
    {
        "circleID": "200643650451336",
        "name": "Kochi",
        "latitude": 9.925,
        "longitude": 76.26,
        "memberCount": 1161,
        "canJoin": true
    },
    {
        "circleID": "273055576438464",
        "name": "Bengaluru",
        "latitude": 12.9833,
        "longitude": 77.5833,
        "memberCount": 7671,
        "canJoin": true
    },
    {
        "circleID": "1933043623576030",
        "name": "Coimbatore",
        "latitude": 11,
        "longitude": 76.9667,
        "memberCount": 1159,
        "canJoin": true
    },
    {
        "circleID": "785191984963519",
        "name": "Lagos",
        "latitude": 6.45306,
        "longitude": 3.39583,
        "memberCount": 11287,
        "canJoin": true
    },
    {
        "circleID": "1504588562982503",
        "name": "Cologne",
        "latitude": 50.95,
        "longitude": 6.9667,
        "memberCount": 222,
        "canJoin": true
    },
    {
        "circleID": "1963451870609161",
        "name": "Ruhr",
        "latitude": 51.5167,
        "longitude": 7.4667,
        "memberCount": 204,
        "canJoin": true
    },
    {
        "circleID": "369104740164746",
        "name": "Tallinn",
        "latitude": 59.4187,
        "longitude": 24.7517,
        "memberCount": 73,
        "canJoin": true
    },
    {
        "circleID": "892568044281665",
        "name": "Oldenburg",
        "latitude": 53.1439,
        "longitude": 8.2139,
        "memberCount": 101,
        "canJoin": true
    },
    {
        "circleID": "290252258175563",
        "name": "Trivandrum",
        "latitude": 8.48333,
        "longitude": 76.9167,
        "memberCount": 413,
        "canJoin": true
    },
    {
        "circleID": "1281821695261949",
        "name": "Vellore",
        "latitude": 12.9333,
        "longitude": 79.1333,
        "memberCount": 847,
        "canJoin": true
    },
    {
        "circleID": "202388690295715",
        "name": "Lusaka",
        "latitude": -15.4167,
        "longitude": 28.2833,
        "memberCount": 676,
        "canJoin": true
    },
    {
        "circleID": "1883332761914063",
        "name": "Paris",
        "latitude": 48.8567,
        "longitude": 2.3508,
        "memberCount": 2141,
        "canJoin": true
    },
    {
        "circleID": "120163835350969",
        "name": "Lille",
        "latitude": 50.6372,
        "longitude": 3.0633,
        "memberCount": 471,
        "canJoin": true
    },
    {
        "circleID": "139858679989788",
        "name": "Ouagadougou",
        "latitude": 12.3572,
        "longitude": -1.5353,
        "memberCount": 321,
        "canJoin": true
    },
    {
        "circleID": "794365157380816",
        "name": "Chennai",
        "latitude": 13.0839,
        "longitude": 80.27,
        "memberCount": 3373,
        "canJoin": true
    },
    {
        "circleID": "148767715736915",
        "name": "Madrid",
        "latitude": 40.4,
        "longitude": -3.68333,
        "memberCount": 941,
        "canJoin": true
    },
    {
        "circleID": "116094719003894",
        "name": "Harare",
        "latitude": -17.8639,
        "longitude": 31.0297,
        "memberCount": 1073,
        "canJoin": true
    },
    {
        "circleID": "313330125802930",
        "name": "Accra",
        "latitude": 5.55,
        "longitude": -0.2,
        "memberCount": 1118,
        "canJoin": true
    },
    {
        "circleID": "447690568905925",
        "name": "Kathmandu",
        "latitude": 27.7,
        "longitude": 85.3333,
        "memberCount": 1296,
        "canJoin": true
    },
    {
        "circleID": "134234290625228",
        "name": "Colombo",
        "latitude": 6.9344,
        "longitude": 79.8428,
        "memberCount": 923,
        "canJoin": true
    },
    {
        "circleID": "1865222850415420",
        "name": "Casablanca",
        "latitude": 33.5333,
        "longitude": -7.5833,
        "memberCount": 4191,
        "canJoin": false
    },
    {
        "circleID": "172696896690437",
        "name": "Oxford",
        "latitude": 51.7519,
        "longitude": -1.2578,
        "memberCount": 9,
        "canJoin": true
    },
    {
        "circleID": "426324524408998",
        "name": "Kolkata",
        "latitude": 22.5697,
        "longitude": 88.3697,
        "memberCount": 4852,
        "canJoin": true
    },
    {
        "circleID": "762061187287264",
        "name": "Dhaka",
        "latitude": 23.7,
        "longitude": 90.375,
        "memberCount": 4482,
        "canJoin": true
    },
    {
        "circleID": "175910812924011",
        "name": "Gaborone",
        "latitude": -24.6581,
        "longitude": 25.9122,
        "memberCount": 124,
        "canJoin": true
    },
    {
        "circleID": "1825804737446659",
        "name": "Pretoria",
        "latitude": -25.7533,
        "longitude": 28.1869,
        "memberCount": 1069,
        "canJoin": true
    },
    {
        "circleID": "705516112976972",
        "name": "Johannesburg",
        "latitude": -26.2044,
        "longitude": 28.0456,
        "memberCount": 918,
        "canJoin": true
    },
    {
        "circleID": "165812400654323",
        "name": "Windhoek",
        "latitude": -22.57,
        "longitude": 17.0836,
        "memberCount": 517,
        "canJoin": true
    },
    {
        "circleID": "1374876402568311",
        "name": "Durban",
        "latitude": -29.8833,
        "longitude": 31.05,
        "memberCount": 796,
        "canJoin": true
    },
    {
        "circleID": "221313001757595",
        "name": "Kimberley",
        "latitude": -28.7419,
        "longitude": 24.7719,
        "memberCount": 103,
        "canJoin": true
    },
    {
        "circleID": "730934480409447",
        "name": "Dakar",
        "latitude": 14.6928,
        "longitude": -17.4467,
        "memberCount": 719,
        "canJoin": true
    },
    {
        "circleID": "168280327242191",
        "name": "Bangkok",
        "latitude": 13.7522,
        "longitude": 100.494,
        "memberCount": 1500,
        "canJoin": true
    },
    {
        "circleID": "606796462850428",
        "name": "Praia",
        "latitude": 14.9208,
        "longitude": -23.5083,
        "memberCount": 58,
        "canJoin": true
    },
    {
        "circleID": "1947184538900207",
        "name": "Cape Town",
        "latitude": -33.9253,
        "longitude": 18.4239,
        "memberCount": 748,
        "canJoin": true
    },
    {
        "circleID": "166010417426611",
        "name": "Medan",
        "latitude": 3.58333,
        "longitude": 98.6667,
        "memberCount": 453,
        "canJoin": true
    },
    {
        "circleID": "1602320303162483",
        "name": "Hanoi",
        "latitude": 21.0333,
        "longitude": 105.85,
        "memberCount": 716,
        "canJoin": true
    },
    {
        "circleID": "602785996748648",
        "name": "Phnom Penh",
        "latitude": 11.55,
        "longitude": 104.917,
        "memberCount": 183,
        "canJoin": true
    },
    {
        "circleID": "111366219409930",
        "name": "Ho Chi Minh City",
        "latitude": 10.7694,
        "longitude": 106.682,
        "memberCount": 954,
        "canJoin": true
    },
    {
        "circleID": "1066080333523200",
        "name": "Bandung",
        "latitude": 0.533333,
        "longitude": 103.3,
        "memberCount": 1712,
        "canJoin": true
    },
    {
        "circleID": "637031403306071",
        "name": "Batam",
        "latitude": 1.1325,
        "longitude": 104.044,
        "memberCount": 277,
        "canJoin": true
    },
    {
        "circleID": "314612338965098",
        "name": "Jakarta",
        "latitude": -6.2173,
        "longitude": 106.839,
        "memberCount": 5816,
        "canJoin": true
    },
    {
        "circleID": "672940279555716",
        "name": "Taipei",
        "latitude": 25.0333,
        "longitude": 121.633,
        "memberCount": 2290,
        "canJoin": true
    },
    {
        "circleID": "188307805047927",
        "name": "Seoul",
        "latitude": 37.5689,
        "longitude": 126.977,
        "memberCount": 1545,
        "canJoin": true
    },
    {
        "circleID": "204734290119631",
        "name": "Semarang",
        "latitude": -6.96667,
        "longitude": 110.417,
        "memberCount": 401,
        "canJoin": true
    },
    {
        "circleID": "393043247755872",
        "name": "Yogyakarta",
        "latitude": -7.79585,
        "longitude": 110.368,
        "memberCount": 1769,
        "canJoin": true
    },
    {
        "circleID": "419658048380820",
        "name": "Manila",
        "latitude": 14.6042,
        "longitude": 120.982,
        "memberCount": 1134,
        "canJoin": true
    },
    {
        "circleID": "1559948737349255",
        "name": "Surabaya",
        "latitude": -7.2653,
        "longitude": 112.743,
        "memberCount": 2038,
        "canJoin": true
    },
    {
        "circleID": "452181301790856",
        "name": "Malang",
        "latitude": -7.97778,
        "longitude": 112.628,
        "memberCount": 2251,
        "canJoin": true
    },
    {
        "circleID": "387131988390653",
        "name": "Bali",
        "latitude": -8.65,
        "longitude": 115.217,
        "memberCount": 1073,
        "canJoin": true
    },
    {
        "circleID": "159614634786043",
        "name": "Osaka",
        "latitude": 34.7114,
        "longitude": 135.508,
        "memberCount": 241,
        "canJoin": true
    },
    {
        "circleID": "434994406858923",
        "name": "Boston",
        "latitude": 42.3578,
        "longitude": -71.0617,
        "memberCount": 589,
        "canJoin": true
    },
    {
        "circleID": "1576748942335620",
        "name": "Belo Horizonte",
        "latitude": -19.9191,
        "longitude": -43.9387,
        "memberCount": 1597,
        "canJoin": true
    },
    {
        "circleID": "611233319268006",
        "name": "New York City",
        "latitude": 40.7167,
        "longitude": -74,
        "memberCount": 146,
        "canJoin": true
    },
    {
        "circleID": "454854474858272",
        "name": "Toronto",
        "latitude": 43.7166,
        "longitude": -79.3407,
        "memberCount": 1449,
        "canJoin": true
    },
    {
        "circleID": "1914406242145773",
        "name": "Santa Rita do Sapuca\u00ed",
        "latitude": -22.25,
        "longitude": -45.7,
        "memberCount": 650,
        "canJoin": true
    },
    {
        "circleID": "793800950820706",
        "name": "Uberl\u00e2ndia",
        "latitude": -18.9167,
        "longitude": -48.3,
        "memberCount": 929,
        "canJoin": true
    },
    {
        "circleID": "452279091776376",
        "name": "S\u00e3o Paulo",
        "latitude": -23.55,
        "longitude": -46.6333,
        "memberCount": 4747,
        "canJoin": true
    },
    {
        "circleID": "148573999039923",
        "name": "Campinas",
        "latitude": -22.9008,
        "longitude": -47.0572,
        "memberCount": 1132,
        "canJoin": true
    },
    {
        "circleID": "2024876487833696",
        "name": "Florian\u00f3polis",
        "latitude": -27.593,
        "longitude": -48.5466,
        "memberCount": 270,
        "canJoin": true
    },
    {
        "circleID": "817576935074606",
        "name": "Porto Alegre",
        "latitude": -30.0333,
        "longitude": -51.2,
        "memberCount": 1299,
        "canJoin": true
    },
    {
        "circleID": "306941353083237",
        "name": "Port-au-Prince",
        "latitude": 18.5392,
        "longitude": -72.335,
        "memberCount": 906,
        "canJoin": true
    },
    {
        "circleID": "294168374356312",
        "name": "Miami",
        "latitude": 25.7877,
        "longitude": -80.2241,
        "memberCount": 823,
        "canJoin": true
    },
    {
        "circleID": "190816871444959",
        "name": "Montgomery",
        "latitude": 32.3615,
        "longitude": -86.2791,
        "memberCount": 344,
        "canJoin": true
    },
    {
        "circleID": "317955055278700",
        "name": "Seattle",
        "latitude": 47.6097,
        "longitude": -122.333,
        "memberCount": 491,
        "canJoin": true
    },
    {
        "circleID": "753879981466417",
        "name": "Buenos Aires",
        "latitude": -34.6033,
        "longitude": -58.3817,
        "memberCount": 1781,
        "canJoin": true
    },
    {
        "circleID": "315278368956034",
        "name": "Oklahoma City",
        "latitude": 35.4823,
        "longitude": -97.535,
        "memberCount": 150,
        "canJoin": true
    },
    {
        "circleID": "1179297305513762",
        "name": "Bogot\u00e1",
        "latitude": 4.5981,
        "longitude": -74.0758,
        "memberCount": 1217,
        "canJoin": true
    },
    {
        "circleID": "2088956808052451",
        "name": "C\u00f3rdoba",
        "latitude": -31.4,
        "longitude": -64.1833,
        "memberCount": 412,
        "canJoin": true
    },
    {
        "circleID": "1905787359706011",
        "name": "Austin",
        "latitude": 30.2672,
        "longitude": -97.7639,
        "memberCount": 434,
        "canJoin": true
    },
    {
        "circleID": "361042454323663",
        "name": "Melbourne",
        "latitude": -37.8136,
        "longitude": 144.963,
        "memberCount": 445,
        "canJoin": true
    },
    {
        "circleID": "1330495907035801",
        "name": "Oakland",
        "latitude": 37.8044,
        "longitude": -122.271,
        "memberCount": 869,
        "canJoin": true
    },
    {
        "circleID": "139071840127704",
        "name": "San Francisco",
        "latitude": 37.7793,
        "longitude": -122.419,
        "memberCount": 6,
        "canJoin": true
    },
    {
        "circleID": "2096386487298986",
        "name": "Monterrey",
        "latitude": 25.6667,
        "longitude": -100.3,
        "memberCount": 249,
        "canJoin": true
    },
    {
        "circleID": "1686810241332524",
        "name": "Santiago",
        "latitude": -33.45,
        "longitude": -70.6667,
        "memberCount": 2286,
        "canJoin": true
    },
    {
        "circleID": "437698323270389",
        "name": "Ciudad de Guatemala",
        "latitude": 14.6211,
        "longitude": -90.5269,
        "memberCount": 1977,
        "canJoin": true
    },
    {
        "circleID": "483923265334520",
        "name": "Sydney",
        "latitude": -33.86,
        "longitude": 151.211,
        "memberCount": 233,
        "canJoin": true
    },
    {
        "circleID": "323609051375436",
        "name": "Ciudad de M\u00e9xico",
        "latitude": 19.4333,
        "longitude": -99.1333,
        "memberCount": 3883,
        "canJoin": true
    },
    {
        "circleID": "1414874548596271",
        "name": "Guadalajara",
        "latitude": 20.6667,
        "longitude": -103.35,
        "memberCount": 1960,
        "canJoin": true
    }
]